[
  {"city": "Tokio", "country": "Japan", "latitude": 35.6762, "longitude": 139.6503, "difficulty": "easy"},
  {"city": "Paris", "country": "Frankreich", "latitude": 48.8566, "longitude": 2.3522, "difficulty": "easy"},
  {"city": "New York", "country": "USA", "latitude": 40.7128, "longitude": -74.0060, "difficulty": "easy"},
  {"city": "London", "country": "Vereinigtes Königreich", "latitude": 51.5074, "longitude": -0.1278, "difficulty": "easy"},
  {"city": "Sydney", "country": "Australien", "latitude": -33.8688, "longitude": 151.2093, "difficulty": "easy"},
  {"city": "Kairo", "country": "Ägypten", "latitude": 30.0444, "longitude": 31.2357, "difficulty": "easy"},
  {"city": "Moskau", "country": "Russland", "latitude": 55.7558, "longitude": 37.6173, "difficulty": "easy"},
  {"city": "Peking", "country": "China", "latitude": 39.9042, "longitude": 116.4074, "difficulty": "easy"},
  {"city": "Rio de Janeiro", "country": "Brasilien", "latitude": -22.9068, "longitude": -43.1729, "difficulty": "easy"},
  {"city": "Rom", "country": "Italien", "latitude": 41.9028, "longitude": 12.4964, "difficulty": "easy"},
  {"city": "Berlin", "country": "Deutschland", "latitude": 52.5200, "longitude": 13.4050, "difficulty": "easy"},
  {"city": "Mumbai", "country": "Indien", "latitude": 19.0760, "longitude": 72.8777, "difficulty": "easy"},
  {"city": "Istanbul", "country": "Türkei", "latitude": 41.0082, "longitude": 28.9784, "difficulty": "easy"},
  {"city": "Bangkok", "country": "Thailand", "latitude": 13.7563, "longitude": 100.5018, "difficulty": "easy"},
  {"city": "Mexico-Stadt", "country": "Mexiko", "latitude": 19.4326, "longitude": -99.1332, "difficulty": "easy"},
  {"city": "Buenos Aires", "country": "Argentinien", "latitude": -34.6037, "longitude": -58.3816, "difficulty": "easy"},
  {"city": "Dubai", "country": "VAE", "latitude": 25.2048, "longitude": 55.2708, "difficulty": "easy"},
  {"city": "Los Angeles", "country": "USA", "latitude": 34.0522, "longitude": -118.2437, "difficulty": "easy"},
  {"city": "Singapur", "country": "Singapur", "latitude": 1.3521, "longitude": 103.8198, "difficulty": "easy"},
  {"city": "Seoul", "country": "Südkorea", "latitude": 37.5665, "longitude": 126.9780, "difficulty": "easy"},
  {"city": "Kapstadt", "country": "Südafrika", "latitude": -33.9249, "longitude": 18.4241, "difficulty": "easy"},
  {"city": "Madrid", "country": "Spanien", "latitude": 40.4168, "longitude": -3.7038, "difficulty": "easy"},
  {"city": "Lissabon", "country": "Portugal", "latitude": 38.7223, "longitude": -9.1393, "difficulty": "easy"},
  {"city": "Athen", "country": "Griechenland", "latitude": 37.9838, "longitude": 23.7275, "difficulty": "easy"},
  {"city": "Wien", "country": "Österreich", "latitude": 48.2082, "longitude": 16.3738, "difficulty": "easy"},
  {"city": "Amsterdam", "country": "Niederlande", "latitude": 52.3676, "longitude": 4.9041, "difficulty": "easy"},
  {"city": "Nairobi", "country": "Kenia", "latitude": -1.2921, "longitude": 36.8219, "difficulty": "easy"},
  {"city": "Toronto", "country": "Kanada", "latitude": 43.6532, "longitude": -79.3832, "difficulty": "easy"},
  {"city": "Lima", "country": "Peru", "latitude": -12.0464, "longitude": -77.0428, "difficulty": "easy"},
  {"city": "Hongkong", "country": "China", "latitude": 22.3193, "longitude": 114.1694, "difficulty": "easy"},
  {"city": "Stockholm", "country": "Schweden", "latitude": 59.3293, "longitude": 18.0686, "difficulty": "easy"},
  {"city": "Prag", "country": "Tschechien", "latitude": 50.0755, "longitude": 14.4378, "difficulty": "easy"},
  {"city": "Warschau", "country": "Polen", "latitude": 52.2297, "longitude": 21.0122, "difficulty": "easy"},
  {"city": "Dublin", "country": "Irland", "latitude": 53.3498, "longitude": -6.2603, "difficulty": "easy"},
  {"city": "Havanna", "country": "Kuba", "latitude": 23.1136, "longitude": -82.3666, "difficulty": "easy"},
  {"city": "Jakarta", "country": "Indonesien", "latitude": -6.2088, "longitude": 106.8456, "difficulty": "easy"},
  {"city": "Bogotá", "country": "Kolumbien", "latitude": 4.7110, "longitude": -74.0721, "difficulty": "easy"},
  {"city": "Hanoi", "country": "Vietnam", "latitude": 21.0285, "longitude": 105.8542, "difficulty": "easy"},
  {"city": "Helsinki", "country": "Finnland", "latitude": 60.1699, "longitude": 24.9384, "difficulty": "easy"},
  {"city": "Kopenhagen", "country": "Dänemark", "latitude": 55.6761, "longitude": 12.5683, "difficulty": "easy"},
  {"city": "Brüssel", "country": "Belgien", "latitude": 50.8503, "longitude": 4.3517, "difficulty": "easy"},
  {"city": "Bagdad", "country": "Irak", "latitude": 33.3152, "longitude": 44.3661, "difficulty": "easy"},
  {"city": "Santiago", "country": "Chile", "latitude": -33.4489, "longitude": -70.6693, "difficulty": "easy"},
  {"city": "Teheran", "country": "Iran", "latitude": 35.6892, "longitude": 51.3890, "difficulty": "easy"},
  {"city": "Addis Abeba", "country": "Äthiopien", "latitude": 9.0250, "longitude": 38.7469, "difficulty": "easy"},
  {"city": "Lagos", "country": "Nigeria", "latitude": 6.5244, "longitude": 3.3792, "difficulty": "easy"},
  {"city": "Johannesburg", "country": "Südafrika", "latitude": -26.2041, "longitude": 28.0473, "difficulty": "easy"},
  {"city": "Neu-Delhi", "country": "Indien", "latitude": 28.6139, "longitude": 77.2090, "difficulty": "easy"},
  {"city": "Kuala Lumpur", "country": "Malaysia", "latitude": 3.1390, "longitude": 101.6869, "difficulty": "easy"},
  {"city": "Marrakesch", "country": "Marokko", "latitude": 31.6295, "longitude": -7.9811, "difficulty": "easy"},
  {"city": "Washington D.C.", "country": "USA", "latitude": 38.9072, "longitude": -77.0369, "difficulty": "easy"},
  {"city": "Zürich", "country": "Schweiz", "latitude": 47.3769, "longitude": 8.5417, "difficulty": "easy"},
  {"city": "Oslo", "country": "Norwegen", "latitude": 59.9139, "longitude": 10.7522, "difficulty": "easy"},
  {"city": "Caracas", "country": "Venezuela", "latitude": 10.4806, "longitude": -66.9036, "difficulty": "easy"},

  {"city": "Lyon", "country": "Frankreich", "latitude": 45.7640, "longitude": 4.8357, "difficulty": "medium"},
  {"city": "Osaka", "country": "Japan", "latitude": 34.6937, "longitude": 135.5023, "difficulty": "medium"},
  {"city": "Denver", "country": "USA", "latitude": 39.7392, "longitude": -104.9903, "difficulty": "medium"},
  {"city": "Porto", "country": "Portugal", "latitude": 41.1579, "longitude": -8.6291, "difficulty": "medium"},
  {"city": "Izmir", "country": "Türkei", "latitude": 38.4237, "longitude": 27.1428, "difficulty": "medium"},
  {"city": "Barcelona", "country": "Spanien", "latitude": 41.3874, "longitude": 2.1686, "difficulty": "medium"},
  {"city": "München", "country": "Deutschland", "latitude": 48.1351, "longitude": 11.5820, "difficulty": "medium"},
  {"city": "Melbourne", "country": "Australien", "latitude": -37.8136, "longitude": 144.9631, "difficulty": "medium"},
  {"city": "Vancouver", "country": "Kanada", "latitude": 49.2827, "longitude": -123.1207, "difficulty": "medium"},
  {"city": "Mailand", "country": "Italien", "latitude": 45.4642, "longitude": 9.1900, "difficulty": "medium"},
  {"city": "São Paulo", "country": "Brasilien", "latitude": -23.5505, "longitude": -46.6333, "difficulty": "medium"},
  {"city": "Shanghai", "country": "China", "latitude": 31.2304, "longitude": 121.4737, "difficulty": "medium"},
  {"city": "Marseille", "country": "Frankreich", "latitude": 43.2965, "longitude": 5.3698, "difficulty": "medium"},
  {"city": "Hamburg", "country": "Deutschland", "latitude": 53.5511, "longitude": 9.9937, "difficulty": "medium"},
  {"city": "Edinburgh", "country": "Vereinigtes Königreich", "latitude": 55.9533, "longitude": -3.1883, "difficulty": "medium"},
  {"city": "Sevilla", "country": "Spanien", "latitude": 37.3891, "longitude": -5.9845, "difficulty": "medium"},
  {"city": "Venedig", "country": "Italien", "latitude": 45.4408, "longitude": 12.3155, "difficulty": "medium"},
  {"city": "Krakau", "country": "Polen", "latitude": 50.0647, "longitude": 19.9450, "difficulty": "medium"},
  {"city": "Beirut", "country": "Libanon", "latitude": 33.8938, "longitude": 35.5018, "difficulty": "medium"},
  {"city": "Casablanca", "country": "Marokko", "latitude": 33.5731, "longitude": -7.5898, "difficulty": "medium"},
  {"city": "Medellín", "country": "Kolumbien", "latitude": 6.2476, "longitude": -75.5658, "difficulty": "medium"},
  {"city": "Monterrey", "country": "Mexiko", "latitude": 25.6866, "longitude": -100.3161, "difficulty": "medium"},
  {"city": "Göteborg", "country": "Schweden", "latitude": 57.7089, "longitude": 11.9746, "difficulty": "medium"},
  {"city": "Perth", "country": "Australien", "latitude": -31.9505, "longitude": 115.8605, "difficulty": "medium"},
  {"city": "Colombo", "country": "Sri Lanka", "latitude": 6.9271, "longitude": 79.8612, "difficulty": "medium"},
  {"city": "Accra", "country": "Ghana", "latitude": 5.6037, "longitude": -0.1870, "difficulty": "medium"},
  {"city": "Dar es Salaam", "country": "Tansania", "latitude": -6.7924, "longitude": 39.2083, "difficulty": "medium"},
  {"city": "Karatschi", "country": "Pakistan", "latitude": 24.8607, "longitude": 67.0011, "difficulty": "medium"},
  {"city": "Chennai", "country": "Indien", "latitude": 13.0827, "longitude": 80.2707, "difficulty": "medium"},
  {"city": "Guadalajara", "country": "Mexiko", "latitude": 20.6597, "longitude": -103.3496, "difficulty": "medium"},
  {"city": "Quito", "country": "Ecuador", "latitude": -0.1807, "longitude": -78.4678, "difficulty": "medium"},
  {"city": "Montevideo", "country": "Uruguay", "latitude": -34.9011, "longitude": -56.1645, "difficulty": "medium"},
  {"city": "Reykjavik", "country": "Island", "latitude": 64.1466, "longitude": -21.9426, "difficulty": "medium"},
  {"city": "Bukarest", "country": "Rumänien", "latitude": 44.4268, "longitude": 26.1025, "difficulty": "medium"},
  {"city": "Budapest", "country": "Ungarn", "latitude": 47.4979, "longitude": 19.0402, "difficulty": "medium"},
  {"city": "Sofia", "country": "Bulgarien", "latitude": 42.6977, "longitude": 23.3219, "difficulty": "medium"},
  {"city": "Tallinn", "country": "Estland", "latitude": 59.4370, "longitude": 24.7536, "difficulty": "medium"},
  {"city": "Riga", "country": "Lettland", "latitude": 56.9496, "longitude": 24.1052, "difficulty": "medium"},
  {"city": "Bratislava", "country": "Slowakei", "latitude": 48.1486, "longitude": 17.1077, "difficulty": "medium"},
  {"city": "Dubrovnik", "country": "Kroatien", "latitude": 42.6507, "longitude": 18.0944, "difficulty": "medium"},
  {"city": "Doha", "country": "Katar", "latitude": 25.2854, "longitude": 51.5310, "difficulty": "medium"},
  {"city": "Muscat", "country": "Oman", "latitude": 23.5880, "longitude": 58.3829, "difficulty": "medium"},
  {"city": "Phnom Penh", "country": "Kambodscha", "latitude": 11.5564, "longitude": 104.9282, "difficulty": "medium"},
  {"city": "Taipeh", "country": "Taiwan", "latitude": 25.0330, "longitude": 121.5654, "difficulty": "medium"},
  {"city": "Manila", "country": "Philippinen", "latitude": 14.5995, "longitude": 120.9842, "difficulty": "medium"},
  {"city": "Dhaka", "country": "Bangladesch", "latitude": 23.8103, "longitude": 90.4125, "difficulty": "medium"},
  {"city": "Rabat", "country": "Marokko", "latitude": 34.0209, "longitude": -6.8416, "difficulty": "medium"},
  {"city": "Dakar", "country": "Senegal", "latitude": 14.7167, "longitude": -17.4677, "difficulty": "medium"},
  {"city": "Tunis", "country": "Tunesien", "latitude": 36.8065, "longitude": 10.1815, "difficulty": "medium"},
  {"city": "San José", "country": "Costa Rica", "latitude": 9.9281, "longitude": -84.0907, "difficulty": "medium"},
  {"city": "Panama-Stadt", "country": "Panama", "latitude": 8.9824, "longitude": -79.5199, "difficulty": "medium"},
  {"city": "Ankara", "country": "Türkei", "latitude": 39.9334, "longitude": 32.8597, "difficulty": "medium"},
  {"city": "Kiew", "country": "Ukraine", "latitude": 50.4501, "longitude": 30.5234, "difficulty": "medium"},
  {"city": "Belgrad", "country": "Serbien", "latitude": 44.7866, "longitude": 20.4489, "difficulty": "medium"},
  {"city": "Tiflis", "country": "Georgien", "latitude": 41.7151, "longitude": 44.8271, "difficulty": "medium"},
  {"city": "Baku", "country": "Aserbaidschan", "latitude": 40.4093, "longitude": 49.8671, "difficulty": "medium"},
  {"city": "Calgary", "country": "Kanada", "latitude": 51.0447, "longitude": -114.0719, "difficulty": "medium"},
  {"city": "Miami", "country": "USA", "latitude": 25.7617, "longitude": -80.1918, "difficulty": "medium"},
  {"city": "San Francisco", "country": "USA", "latitude": 37.7749, "longitude": -122.4194, "difficulty": "medium"},
  {"city": "Chicago", "country": "USA", "latitude": 41.8781, "longitude": -87.6298, "difficulty": "medium"},
  {"city": "Montréal", "country": "Kanada", "latitude": 45.5017, "longitude": -73.5673, "difficulty": "medium"},
  {"city": "Boston", "country": "USA", "latitude": 42.3601, "longitude": -71.0589, "difficulty": "medium"},
  {"city": "Florenz", "country": "Italien", "latitude": 43.7696, "longitude": 11.2558, "difficulty": "medium"},
  {"city": "Nizza", "country": "Frankreich", "latitude": 43.7102, "longitude": 7.2620, "difficulty": "medium"},
  {"city": "Genf", "country": "Schweiz", "latitude": 46.2044, "longitude": 6.1432, "difficulty": "medium"},
  {"city": "Bern", "country": "Schweiz", "latitude": 46.9480, "longitude": 7.4474, "difficulty": "medium"},
  {"city": "Frankfurt", "country": "Deutschland", "latitude": 50.1109, "longitude": 8.6821, "difficulty": "medium"},
  {"city": "Köln", "country": "Deutschland", "latitude": 50.9375, "longitude": 6.9603, "difficulty": "medium"},
  {"city": "Rotterdam", "country": "Niederlande", "latitude": 51.9244, "longitude": 4.4777, "difficulty": "medium"},
  {"city": "Antwerpen", "country": "Belgien", "latitude": 51.2194, "longitude": 4.4025, "difficulty": "medium"},
  {"city": "Valencia", "country": "Spanien", "latitude": 39.4699, "longitude": -0.3763, "difficulty": "medium"},
  {"city": "Bordeaux", "country": "Frankreich", "latitude": 44.8378, "longitude": -0.5792, "difficulty": "medium"},
  {"city": "Glasgow", "country": "Vereinigtes Königreich", "latitude": 55.8642, "longitude": -4.2518, "difficulty": "medium"},
  {"city": "Auckland", "country": "Neuseeland", "latitude": -36.8485, "longitude": 174.7633, "difficulty": "medium"},
  {"city": "Amman", "country": "Jordanien", "latitude": 31.9454, "longitude": 35.9284, "difficulty": "medium"},
  {"city": "Algier", "country": "Algerien", "latitude": 36.7538, "longitude": 3.0588, "difficulty": "medium"},
  {"city": "Jerewan", "country": "Armenien", "latitude": 40.1792, "longitude": 44.4991, "difficulty": "medium"},
  {"city": "La Paz", "country": "Bolivien", "latitude": -16.5000, "longitude": -68.1500, "difficulty": "medium"},
  {"city": "Asunción", "country": "Paraguay", "latitude": -25.2637, "longitude": -57.5759, "difficulty": "medium"},

  {"city": "Manaus", "country": "Brasilien", "latitude": -3.1190, "longitude": -60.0217, "difficulty": "hard"},
  {"city": "Nowosibirsk", "country": "Russland", "latitude": 55.0084, "longitude": 82.9357, "difficulty": "hard"},
  {"city": "Busan", "country": "Südkorea", "latitude": 35.1796, "longitude": 129.0756, "difficulty": "hard"},
  {"city": "Recife", "country": "Brasilien", "latitude": -8.0476, "longitude": -34.8770, "difficulty": "hard"},
  {"city": "Wladiwostok", "country": "Russland", "latitude": 43.1332, "longitude": 131.9113, "difficulty": "hard"},
  {"city": "Aarhus", "country": "Dänemark", "latitude": 56.1629, "longitude": 10.2039, "difficulty": "hard"},
  {"city": "Bergen", "country": "Norwegen", "latitude": 60.3913, "longitude": 5.3221, "difficulty": "hard"},
  {"city": "Breslau", "country": "Polen", "latitude": 51.1079, "longitude": 17.0385, "difficulty": "hard"},
  {"city": "Thessaloniki", "country": "Griechenland", "latitude": 40.6401, "longitude": 22.9444, "difficulty": "hard"},
  {"city": "Neapel", "country": "Italien", "latitude": 40.8518, "longitude": 14.2681, "difficulty": "hard"},
  {"city": "Bilbao", "country": "Spanien", "latitude": 43.2630, "longitude": -2.9350, "difficulty": "hard"},
  {"city": "Nantes", "country": "Frankreich", "latitude": 47.2184, "longitude": -1.5536, "difficulty": "hard"},
  {"city": "Graz", "country": "Österreich", "latitude": 47.0707, "longitude": 15.4395, "difficulty": "hard"},
  {"city": "Turku", "country": "Finnland", "latitude": 60.4518, "longitude": 22.2666, "difficulty": "hard"},
  {"city": "Lille", "country": "Frankreich", "latitude": 50.6292, "longitude": 3.0573, "difficulty": "hard"},
  {"city": "Córdoba", "country": "Argentinien", "latitude": -31.4201, "longitude": -64.1888, "difficulty": "hard"},
  {"city": "Valparaíso", "country": "Chile", "latitude": -33.0472, "longitude": -71.6127, "difficulty": "hard"},
  {"city": "Cartagena", "country": "Kolumbien", "latitude": 10.3910, "longitude": -75.5144, "difficulty": "hard"},
  {"city": "Chiangmai", "country": "Thailand", "latitude": 18.7061, "longitude": 98.9817, "difficulty": "hard"},
  {"city": "Fukuoka", "country": "Japan", "latitude": 33.5904, "longitude": 130.4017, "difficulty": "hard"},
  {"city": "Chengdu", "country": "China", "latitude": 30.5728, "longitude": 104.0668, "difficulty": "hard"},
  {"city": "Jaipur", "country": "Indien", "latitude": 26.9124, "longitude": 75.7873, "difficulty": "hard"},
  {"city": "Fès", "country": "Marokko", "latitude": 34.0181, "longitude": -5.0078, "difficulty": "hard"},
  {"city": "Kampala", "country": "Uganda", "latitude": 0.3476, "longitude": 32.5825, "difficulty": "hard"},
  {"city": "Lusaka", "country": "Sambia", "latitude": -15.3875, "longitude": 28.3228, "difficulty": "hard"},
  {"city": "Maputo", "country": "Mosambik", "latitude": -25.9692, "longitude": 32.5732, "difficulty": "hard"},
  {"city": "Almaty", "country": "Kasachstan", "latitude": 43.2220, "longitude": 76.8512, "difficulty": "hard"},
  {"city": "Taschkent", "country": "Usbekistan", "latitude": 41.2995, "longitude": 69.2401, "difficulty": "hard"},
  {"city": "Astana", "country": "Kasachstan", "latitude": 51.1694, "longitude": 71.4491, "difficulty": "hard"},
  {"city": "Ulaanbaatar", "country": "Mongolei", "latitude": 47.8864, "longitude": 106.9057, "difficulty": "hard"},
  {"city": "Kathmandu", "country": "Nepal", "latitude": 27.7172, "longitude": 85.3240, "difficulty": "hard"},
  {"city": "Rangun", "country": "Myanmar", "latitude": 16.8661, "longitude": 96.1951, "difficulty": "hard"},
  {"city": "Surabaya", "country": "Indonesien", "latitude": -7.2575, "longitude": 112.7521, "difficulty": "hard"},
  {"city": "Davao", "country": "Philippinen", "latitude": 7.1907, "longitude": 125.4553, "difficulty": "hard"},
  {"city": "Christchurch", "country": "Neuseeland", "latitude": -43.5321, "longitude": 172.6362, "difficulty": "hard"},
  {"city": "Darwin", "country": "Australien", "latitude": -12.4634, "longitude": 130.8456, "difficulty": "hard"},
  {"city": "Anchorage", "country": "USA", "latitude": 61.2181, "longitude": -149.9003, "difficulty": "hard"},
  {"city": "Whitehorse", "country": "Kanada", "latitude": 60.7212, "longitude": -135.0568, "difficulty": "hard"},
  {"city": "Irkutsk", "country": "Russland", "latitude": 52.2870, "longitude": 104.3050, "difficulty": "hard"},
  {"city": "Samarkand", "country": "Usbekistan", "latitude": 39.6542, "longitude": 66.9597, "difficulty": "hard"},
  {"city": "Cusco", "country": "Peru", "latitude": -13.5319, "longitude": -71.9675, "difficulty": "hard"},
  {"city": "Oulu", "country": "Finnland", "latitude": 65.0121, "longitude": 25.4651, "difficulty": "hard"},
  {"city": "Tromsø", "country": "Norwegen", "latitude": 69.6492, "longitude": 18.9553, "difficulty": "hard"},
  {"city": "Iquitos", "country": "Peru", "latitude": -3.7491, "longitude": -73.2538, "difficulty": "hard"},
  {"city": "Lhasa", "country": "China", "latitude": 29.6500, "longitude": 91.1000, "difficulty": "hard"},
  {"city": "Murmansk", "country": "Russland", "latitude": 68.9585, "longitude": 33.0827, "difficulty": "hard"},
  {"city": "Windhoek", "country": "Namibia", "latitude": -22.5609, "longitude": 17.0658, "difficulty": "hard"},
  {"city": "Antananarivo", "country": "Madagaskar", "latitude": -18.8792, "longitude": 47.5079, "difficulty": "hard"},
  {"city": "Lomé", "country": "Togo", "latitude": 6.1256, "longitude": 1.2254, "difficulty": "hard"},
  {"city": "Port Moresby", "country": "Papua-Neuguinea", "latitude": -6.3149, "longitude": 143.9556, "difficulty": "hard"},
  {"city": "Nouméa", "country": "Neukaledonien", "latitude": -22.2558, "longitude": 166.4505, "difficulty": "hard"},
  {"city": "Punta Arenas", "country": "Chile", "latitude": -53.1638, "longitude": -70.9171, "difficulty": "hard"},
  {"city": "Jakutsk", "country": "Russland", "latitude": 62.0355, "longitude": 129.6755, "difficulty": "hard"},
  {"city": "Nuuk", "country": "Grönland", "latitude": 64.1814, "longitude": -51.6941, "difficulty": "hard"},
  {"city": "Thimphu", "country": "Bhutan", "latitude": 27.4728, "longitude": 89.6390, "difficulty": "hard"},
  {"city": "Duschanbe", "country": "Tadschikistan", "latitude": 38.5598, "longitude": 68.7740, "difficulty": "hard"},
  {"city": "Bischkek", "country": "Kirgisistan", "latitude": 42.8746, "longitude": 74.5698, "difficulty": "hard"},
  {"city": "Asmara", "country": "Eritrea", "latitude": 15.3229, "longitude": 38.9251, "difficulty": "hard"},
  {"city": "Dschidda", "country": "Saudi-Arabien", "latitude": 21.4858, "longitude": 39.1925, "difficulty": "hard"},
  {"city": "Innsbruck", "country": "Österreich", "latitude": 47.2692, "longitude": 11.4041, "difficulty": "hard"},
  {"city": "Split", "country": "Kroatien", "latitude": 43.5081, "longitude": 16.4402, "difficulty": "hard"},
  {"city": "Vilnius", "country": "Litauen", "latitude": 54.6872, "longitude": 25.2797, "difficulty": "hard"},
  {"city": "Tirana", "country": "Albanien", "latitude": 41.3275, "longitude": 19.8187, "difficulty": "hard"},
  {"city": "Skopje", "country": "Nordmazedonien", "latitude": 41.9981, "longitude": 21.4254, "difficulty": "hard"},
  {"city": "Chisinau", "country": "Moldawien", "latitude": 47.0105, "longitude": 28.8638, "difficulty": "hard"},
  {"city": "Minsk", "country": "Belarus", "latitude": 53.9006, "longitude": 27.5590, "difficulty": "hard"},
  {"city": "Sapporo", "country": "Japan", "latitude": 43.0618, "longitude": 141.3545, "difficulty": "hard"},
  {"city": "Okinawa", "country": "Japan", "latitude": 26.2006, "longitude": 127.6809, "difficulty": "hard"},
  {"city": "Sendai", "country": "Japan", "latitude": 38.2682, "longitude": 140.8694, "difficulty": "hard"},
  {"city": "Guangzhou", "country": "China", "latitude": 23.1291, "longitude": 113.2644, "difficulty": "hard"},
  {"city": "Shenzhen", "country": "China", "latitude": 22.5431, "longitude": 114.0579, "difficulty": "hard"},
  {"city": "Chongqing", "country": "China", "latitude": 29.5628, "longitude": 106.5528, "difficulty": "hard"},
  {"city": "Xi'an", "country": "China", "latitude": 34.2583, "longitude": 108.9286, "difficulty": "hard"},
  {"city": "Harbin", "country": "China", "latitude": 45.7500, "longitude": 126.6500, "difficulty": "hard"},
  {"city": "Da Nang", "country": "Vietnam", "latitude": 16.0544, "longitude": 108.2022, "difficulty": "hard"},
  {"city": "Can Tho", "country": "Vietnam", "latitude": 10.0452, "longitude": 105.7469, "difficulty": "hard"},
  {"city": "Phuket", "country": "Thailand", "latitude": 7.8804, "longitude": 98.3923, "difficulty": "hard"},
  {"city": "Yogyakarta", "country": "Indonesien", "latitude": -7.7956, "longitude": 110.3695, "difficulty": "hard"},
  {"city": "Cebu", "country": "Philippinen", "latitude": 10.3150, "longitude": 123.8854, "difficulty": "hard"},
  {"city": "Jeju", "country": "Südkorea", "latitude": 33.4996, "longitude": 126.5312, "difficulty": "hard"},
  {"city": "Bangalore", "country": "Indien", "latitude": 12.9716, "longitude": 77.5946, "difficulty": "hard"},
  {"city": "Hyderabad", "country": "Indien", "latitude": 17.3850, "longitude": 78.4867, "difficulty": "hard"},
  {"city": "Kalkutta", "country": "Indien", "latitude": 22.5726, "longitude": 88.3639, "difficulty": "hard"},
  {"city": "Lahore", "country": "Pakistan", "latitude": 31.5204, "longitude": 74.3587, "difficulty": "hard"},
  {"city": "Islamabad", "country": "Pakistan", "latitude": 33.6844, "longitude": 73.0479, "difficulty": "hard"},
  {"city": "Abu Dhabi", "country": "VAE", "latitude": 24.4539, "longitude": 54.3773, "difficulty": "hard"},
  {"city": "Manama", "country": "Bahrain", "latitude": 26.2285, "longitude": 50.5860, "difficulty": "hard"},
  {"city": "Kuwait-Stadt", "country": "Kuwait", "latitude": 29.3759, "longitude": 47.9774, "difficulty": "hard"},
  {"city": "Riad", "country": "Saudi-Arabien", "latitude": 24.7136, "longitude": 46.6753, "difficulty": "hard"},
  {"city": "Tripolis", "country": "Libyen", "latitude": 32.8872, "longitude": 13.1913, "difficulty": "hard"},
  {"city": "Blantyre", "country": "Malawi", "latitude": -15.7975, "longitude": 35.0053, "difficulty": "hard"},
  {"city": "Arusha", "country": "Tansania", "latitude": -3.3869, "longitude": 36.6828, "difficulty": "hard"},
  {"city": "Mauritius", "country": "Mauritius", "latitude": -20.1609, "longitude": 57.5012, "difficulty": "hard"},
  {"city": "Victoria", "country": "Seychellen", "latitude": -4.6191, "longitude": 55.4513, "difficulty": "hard"},
  {"city": "Cotonou", "country": "Benin", "latitude": 6.3703, "longitude": 2.3912, "difficulty": "hard"},
  {"city": "Niamey", "country": "Niger", "latitude": 13.5127, "longitude": 2.1126, "difficulty": "hard"},
  {"city": "Bamako", "country": "Mali", "latitude": 12.6392, "longitude": -8.0029, "difficulty": "hard"},
  {"city": "Nouakchott", "country": "Mauretanien", "latitude": 18.0735, "longitude": -15.9582, "difficulty": "hard"},
  {"city": "Luanda", "country": "Angola", "latitude": -8.8383, "longitude": 13.2344, "difficulty": "hard"},
  {"city": "Lubumbashi", "country": "DR Kongo", "latitude": -11.6876, "longitude": 27.5026, "difficulty": "hard"},
  {"city": "Brazzaville", "country": "Republik Kongo", "latitude": -4.3217, "longitude": 15.3126, "difficulty": "hard"},
  {"city": "Yaoundé", "country": "Kamerun", "latitude": 3.8480, "longitude": 11.5021, "difficulty": "hard"},
  {"city": "Libreville", "country": "Gabun", "latitude": 0.4162, "longitude": 9.4673, "difficulty": "hard"},
  {"city": "Kigali", "country": "Ruanda", "latitude": -1.9536, "longitude": 30.0606, "difficulty": "hard"},
  {"city": "Bujumbura", "country": "Burundi", "latitude": -3.3731, "longitude": 29.3644, "difficulty": "hard"},
  {"city": "Hobart", "country": "Australien", "latitude": -42.8821, "longitude": 147.3272, "difficulty": "hard"},
  {"city": "Cairns", "country": "Australien", "latitude": -16.9186, "longitude": 145.7781, "difficulty": "hard"},
  {"city": "Queenstown", "country": "Neuseeland", "latitude": -45.0312, "longitude": 168.6626, "difficulty": "hard"},
  {"city": "New Orleans", "country": "USA", "latitude": 29.9511, "longitude": -90.0715, "difficulty": "hard"},
  {"city": "Nashville", "country": "USA", "latitude": 36.1627, "longitude": -86.7816, "difficulty": "hard"},
  {"city": "Las Vegas", "country": "USA", "latitude": 36.1699, "longitude": -115.1398, "difficulty": "hard"},
  {"city": "Houston", "country": "USA", "latitude": 29.7604, "longitude": -95.3698, "difficulty": "hard"},
  {"city": "Québec", "country": "Kanada", "latitude": 46.8182, "longitude": -71.2074, "difficulty": "hard"},
  {"city": "Yellowknife", "country": "Kanada", "latitude": 62.4540, "longitude": -114.3718, "difficulty": "hard"},
  {"city": "Salvador", "country": "Brasilien", "latitude": -12.9714, "longitude": -38.5124, "difficulty": "hard"},
  {"city": "Fortaleza", "country": "Brasilien", "latitude": -3.7172, "longitude": -38.5433, "difficulty": "hard"},
  {"city": "Sucre", "country": "Bolivien", "latitude": -19.0196, "longitude": -65.2619, "difficulty": "hard"},
  {"city": "Arequipa", "country": "Peru", "latitude": -16.4090, "longitude": -71.5375, "difficulty": "hard"},
  {"city": "Rosario", "country": "Argentinien", "latitude": -32.9468, "longitude": -60.6393, "difficulty": "hard"},
  {"city": "Concepción", "country": "Chile", "latitude": -36.8270, "longitude": -73.0503, "difficulty": "hard"},
  {"city": "Kyoto", "country": "Japan", "latitude": 35.0116, "longitude": 135.7681, "difficulty": "hard"},
  {"city": "Vientiane", "country": "Laos", "latitude": 17.9757, "longitude": 102.6331, "difficulty": "hard"},
  {"city": "Srinagar", "country": "Indien", "latitude": 34.0837, "longitude": 74.7973, "difficulty": "hard"},
  {"city": "Chandigarh", "country": "Indien", "latitude": 30.7333, "longitude": 76.7794, "difficulty": "hard"}
]
